[
    {
        "lat": 59.932960383585616,
        "lng": 30.300021428367028,
        "name": "Антон",
        "deep": "Петренко",
        "filters": "Александрович",
        "debit": "",
        "comments": "",
        "color": "#ffa502",
        "id": "580dab11-c27e-4d49-8ab0-9a33e48b3a3b"
    },
    {
        "lat": 59.89233635406529,
        "lng": 30.36674435060657,
        "name": "Тимофеё Либилов",
        "deep": "-1488",
        "filters": "Артезианская",
        "debit": "Кал",
        "comments": "С комочками",
        "color": "#ff4757",
        "id": "8ceeb2ca-676f-49df-8079-7b82879b3604"
    },
    {
        "lat": 59.892932833472194,
        "lng": 30.332303477714593,
        "name": "в",
        "deep": "в",
        "filters": "в",
        "debit": "в",
        "comments": "в",
        "color": "#4361ee",
        "id": "4e9ea553-6655-4da6-87f7-8027fca7e897"
    },
    {
        "lat": 59.93542802740727,
        "lng": 30.317188698347845,
        "name": "",
        "deep": "",
        "filters": "",
        "debit": "",
        "comments": "",
        "color": "#4361ee",
        "id": "a2dd4402-55c5-4ba2-85bb-f8aef60472a7"
    },
    {
        "lat": 59.90308845310756,
        "lng": 30.239553695236804,
        "name": "в",
        "deep": "в",
        "filters": "в",
        "debit": "в",
        "comments": "в",
        "color": "#4361ee",
        "id": "06034dc4-de79-4ddc-90f1-311c73787cee"
    },
    {
        "lat": 59.87502384052766,
        "lng": 30.26050827572251,
        "name": "d",
        "deep": "d",
        "filters": "d",
        "debit": "d",
        "comments": "d",
        "color": "#4361ee",
        "id": "7dec90b8-278d-4991-a7e0-8a49bfdf281b"
    },
    {
        "lat": 59.89241636307434,
        "lng": 30.35016639878438,
        "name": "fd",
        "deep": "d",
        "filters": "d",
        "debit": "d",
        "comments": "d",
        "color": "#4361ee",
        "fileName": "3lekcija_1.docx",
        "id": "f670befd-b496-4f10-9228-b0cab73e8619"
    },
    {
        "lat": 59.920294277421824,
        "lng": 30.311348897228843,
        "name": "ол",
        "deep": "ло",
        "filters": "ол",
        "debit": "ол",
        "comments": "ол",
        "color": "#4361ee",
        "fileName": "3lekcija_1.docx",
        "id": "d8849438-5172-4759-9487-336c02d8eadb"
    },
    {
        "lat": 59.880743313658314,
        "lng": 30.37742341803528,
        "name": "ьт",
        "deep": "ьт",
        "filters": "бьт",
        "debit": "ьб",
        "comments": "льбт",
        "color": "#4361ee",
        "fileName": "Lab_rab_2_Znakomstvo_s_DBeaver.docx",
        "id": "90eac80a-8583-4f91-9f3d-cee45a3fb6be"
    },
    {
        "lat": 59.920566658519405,
        "lng": 30.381417561483744,
        "name": "выа",
        "deep": "ыва",
        "filters": "ыва",
        "debit": "ыва",
        "comments": "ыва",
        "color": "#2ed573",
        "fileName": "CSV в UTF-8.docx",
        "id": "ac8b4e05-17f6-41aa-9f8c-fa31d63b7c9d"
    }
]